mission: ORCESTRA
platform: HALO
flight_id: HALO-20240919a
takeoff: 2024-09-19 11:01:16
landing: 2024-09-19 19:56:20
events:
- event_id: HALO-20240919a_5d34
  name: EC meeting point
  time: 2024-09-19 17:43:47.657257
  kinds:
  - ec_underpass
  remarks: []
  distance: 2
- event_id: HALO-20240919a_782d
  name: METEOR overpass
  time: 2024-09-19 13:46:44.172375
  kinds:
  - meteor_overpass
  remarks: []
  distance: 511
  meteor_lat: 10.846532074770833
  meteor_lon: -50.28490000000001
- event_id: HALO-20240919a_782d
  name: METEOR overpass
  time: 2024-09-19 13:46:44.172375
  kinds:
  - meteor_overpass
  remarks: []
  distance: 511
  meteor_lat: 10.846532074770833
  meteor_lon: -50.28490000000001
segments:
- segment_id: HALO-20240919a_1c85
  name: ferry ascent towards straight leg
  start: 2024-09-19 11:05:00
  end: 2024-09-19 11:34:00
  kinds:
  - ascent
  remarks: []
- segment_id: HALO-20240919a_02eb
  name: null
  start: 2024-09-19 19:24:00
  end: 2024-09-19 19:35:00
  kinds:
  - decent
  remarks: []
- segment_id: HALO-20240919a_19d2
  name: radar calibration
  start: 2024-09-19 17:58:30
  end: 2024-09-19 18:01:50
  kinds:
  - straight_leg
  remarks: []
- segment_id: HALO-20240919a_6c50
  name: EC_track_southward_const_alt
  start: 2024-09-19 17:30:00
  end: 2024-09-19 17:58:00
  kinds:
  - straight_leg
  - ec_track
  remarks:
  - 'turbulence: 17:36:30 and 17:38:00'
- segment_id: HALO-20240919a_ec3d
  name:
  - includes meteor_overpass
  start: 2024-09-19 11:34:00
  end: 2024-09-19 12:32:40
  kinds:
  - straight_leg
  remarks: []
- segment_id: HALO-20240919a_caf1
  name: pace track northward
  start: 2024-09-19 13:36:25
  end: 2024-09-19 13:56:00
  kinds:
  - straight_leg
  - pace_track
  remarks:
  - includes meteor_overpass
- segment_id: HALO-20240919a_4f12
  name: null
  start: 2024-09-19 15:47:30
  end: 2024-09-19 16:27:00
  kinds:
  - straight_leg
  remarks: []
- segment_id: HALO-20240919a_0c43
  name: null
  start: 2024-09-19 19:06:00
  end: 2024-09-19 19:14:00
  kinds:
  - straight_leg
  remarks: []
- segment_id: HALO-20240919a_e884
  name: null
  start: 2024-09-19 19:15:00
  end: 2024-09-19 19:24:00
  kinds:
  - straight_leg
  remarks: []
- segment_id: HALO-20240919a_35da
  name: circle
  start: 2024-09-19 12:35:30
  end: 2024-09-19 13:30:35
  kinds:
  - circle
  remarks:
  - turbulence 12:32:30 and 12:48:00
  clat: 10.039163262544436
  clon: -47.20244796302012
  radius: 133039.6934719839
- segment_id: HALO-20240919a_c457
  name: circle
  start: 2024-09-19 13:58:32
  end: 2024-09-19 14:53:20
  kinds:
  - circle
  remarks: []
  clat: 10.85899815223608
  clon: -50.343234711217505
  radius: 133079.83172666095
- segment_id: HALO-20240919a_fb14
  name: ATR circle
  start: 2024-09-19 15:03:25
  end: 2024-09-19 15:33:36
  kinds:
  - circle
  remarks: []
  clat: 11.51191467502287
  clon: -52.955393058977506
  radius: 72056.7387734795
- segment_id: HALO-20240919a_69a2
  name: circle
  start: 2024-09-19 16:30:13
  end: 2024-09-19 17:25:15
  kinds:
  - circle
  remarks: []
  clat: 15.592149965324307
  clon: -53.71651929137671
  radius: 133180.95230887973
- segment_id: HALO-20240919a_8abf
  name: circle
  start: 2024-09-19 18:04:55
  end: 2024-09-19 19:04:15
  kinds:
  - circle
  remarks: []
  clat: 12.167870932605359
  clon: -55.57453718396084
  radius: 133120.84486524708
